{"type":"FeatureCollection","features":[{"type":"Feature","id":1,"geometry":{"type":"Point","coordinates":[-97.737031924183896,31.215685357992925]},"properties":{"OBJECTID_12":1,"objectid_1":"707","objectid":"5787","component":"Army Active","site_name":"Fort Hood","joint_base":"N/A","state_terr":"Texas","country":"United States","oper_stat":"Active","perimeter":160.74338152000001,"area":342.69549145000002,"shape_leng":310088.32829497207,"ORIG_FID":189}},{"type":"Feature","id":2,"geometry":{"type":"Point","coordinates":[-122.55270090382362,47.054474053035165]},"properties":{"OBJECTID_12":2,"objectid_1":"41","objectid":"92","component":"Army Active","site_name":"Fort Lewis","joint_base":"Joint Base Lewis - McChord","state_terr":"Washington","country":"United States","oper_stat":"Active","perimeter":119.6952361,"area":108.72802238,"shape_leng":290888.12056772289,"ORIG_FID":216}},{"type":"Feature","id":3,"geometry":{"type":"Point","coordinates":[-93.121107407680711,31.158358709087224]},"properties":{"OBJECTID_12":3,"objectid_1":"25","objectid":"63","component":"Army Active","site_name":"Fort Polk","joint_base":"N/A","state_terr":"Louisiana","country":"United States","oper_stat":"Active","perimeter":332.77351077999998,"area":375.45963653000001,"shape_leng":641870.16092809057,"ORIG_FID":586}},{"type":"Feature","id":4,"geometry":{"type":"Point","coordinates":[-84.954843110121374,32.283871230472982]},"properties":{"OBJECTID_12":4,"objectid_1":"79","objectid":"579","component":"Army Active","site_name":"Fort Benning AL","joint_base":"N/A","state_terr":"Alabama","country":"United States","oper_stat":"Active","perimeter":29.08141831,"area":19.312068839999998,"shape_leng":56833.315124152403,"ORIG_FID":626}},{"type":"Feature","id":6,"geometry":{"type":"Point","coordinates":[-79.143965338629414,35.136236740333345]},"properties":{"OBJECTID_12":6,"objectid_1":"81","objectid":"583","component":"Army Active","site_name":"Fort Bragg","joint_base":"N/A","state_terr":"North Carolina","country":"United States","oper_stat":"Active","perimeter":119.03178563,"area":242.02159856,"shape_leng":241741.213726282,"ORIG_FID":728}},{"type":"Feature","id":7,"geometry":{"type":"Point","coordinates":[-121.71308597074091,36.584424752800146]},"properties":{"OBJECTID_12":7,"objectid_1":"1","objectid":"1","component":"Army Inactive","site_name":"Fort Ord","joint_base":"N/A","state_terr":"California","country":"United States","oper_stat":"Inactive","perimeter":null,"area":null,"shape_leng":null,"ORIG_FID":null}}]}